[
  {
    "id": 1,
    "provinceId": "hcm",
    "category": "tax",
    "name": "Cuc Thue TP. Ho Chi Minh",
    "address": "63 Hai Ba Trung, Phuong Ben Nghe, Quan 1",
    "phone": "028 3829 7171",
    "hours": "7:30 - 16:30 (Thu 2 - Thu 6)",
    "website": "hcmtax.gov.vn",
    "isActive": true
  },
  {
    "id": 2,
    "provinceId": "hcm",
    "category": "tax",
    "name": "Chi cuc Thue Quan 1",
    "address": "59-61 Ly Tu Trong, Phuong Ben Nghe, Quan 1",
    "phone": "028 3824 1640",
    "hours": "7:30 - 16:30 (Thu 2 - Thu 6)",
    "website": "",
    "isActive": true
  },
  {
    "id": 3,
    "provinceId": "hcm",
    "category": "court",
    "name": "Toa an Nhan dan TP. HCM",
    "address": "131 Nam Ky Khoi Nghia, Quan 1",
    "phone": "028 3829 7949",
    "hours": "7:30 - 16:30 (Thu 2 - Thu 6)",
    "website": "",
    "isActive": true
  },
  {
    "id": 4,
    "provinceId": "hcm",
    "category": "court",
    "name": "Toa an Nhan dan Quan 1",
    "address": "99 Nguyen Dinh Chieu, Quan 3",
    "phone": "028 3930 5963",
    "hours": "7:30 - 16:30 (Thu 2 - Thu 6)",
    "website": "",
    "isActive": true
  },
  {
    "id": 5,
    "provinceId": "hcm",
    "category": "enforcement",
    "name": "Cuc Thi hanh an Dan su TP. HCM",
    "address": "141-143 Pasteur, Quan 3",
    "phone": "028 3823 0940",
    "hours": "7:30 - 16:30 (Thu 2 - Thu 6)",
    "website": "",
    "isActive": true
  },
  {
    "id": 6,
    "provinceId": "hcm",
    "category": "police",
    "name": "Cong an TP. Ho Chi Minh",
    "address": "268 Tran Hung Dao, Quan 1",
    "phone": "028 3839 8282",
    "hours": "24/7",
    "website": "",
    "isActive": true
  },
  {
    "id": 7,
    "provinceId": "hcm",
    "category": "police",
    "name": "Cong an Quan 1",
    "address": "17 Tran Cao Van, Quan 3",
    "phone": "028 3829 3829",
    "hours": "24/7",
    "website": "",
    "isActive": true
  },
  {
    "id": 8,
    "provinceId": "hcm",
    "category": "insurance",
    "name": "BHXH TP. Ho Chi Minh",
    "address": "35 Le Quy Don, Quan 3",
    "phone": "028 3930 2424",
    "hours": "7:30 - 16:30 (Thu 2 - Thu 6)",
    "website": "",
    "isActive": true
  },
  {
    "id": 9,
    "provinceId": "hcm",
    "category": "labor",
    "name": "So Lao dong - TB&XH TP. HCM",
    "address": "159 Pasteur, Quan 3",
    "phone": "028 3829 6413",
    "hours": "7:30 - 16:30 (Thu 2 - Thu 6)",
    "website": "",
    "isActive": true
  },
  {
    "id": 10,
    "provinceId": "hcm",
    "category": "business",
    "name": "So Ke hoach va Dau tu TP. HCM",
    "address": "32 Le Thanh Ton, Quan 1",
    "phone": "028 3823 1520",
    "hours": "7:30 - 16:30 (Thu 2 - Thu 6)",
    "website": "",
    "isActive": true
  },
  {
    "id": 11,
    "provinceId": "hn",
    "category": "tax",
    "name": "Cuc Thue TP. Ha Noi",
    "address": "20 Ly Thuong Kiet, Hoan Kiem",
    "phone": "024 3826 3538",
    "hours": "8:00 - 17:00 (Thu 2 - Thu 6)",
    "website": "hanoi.gdt.gov.vn",
    "isActive": true
  },
  {
    "id": 12,
    "provinceId": "hn",
    "category": "court",
    "name": "Toa an Nhan dan TP. Ha Noi",
    "address": "43 Hai Ba Trung, Hoan Kiem",
    "phone": "024 3825 7203",
    "hours": "8:00 - 17:00 (Thu 2 - Thu 6)",
    "website": "",
    "isActive": true
  },
  {
    "id": 13,
    "provinceId": "hn",
    "category": "enforcement",
    "name": "Cuc Thi hanh an Dan su TP. Ha Noi",
    "address": "1 Ngo Thi Nham, Hoan Kiem",
    "phone": "024 3934 8061",
    "hours": "8:00 - 17:00 (Thu 2 - Thu 6)",
    "website": "",
    "isActive": true
  },
  {
    "id": 14,
    "provinceId": "hn",
    "category": "police",
    "name": "Cong an TP. Ha Noi",
    "address": "87 Tran Hung Dao, Hoan Kiem",
    "phone": "024 3942 4244",
    "hours": "24/7",
    "website": "",
    "isActive": true
  },
  {
    "id": 15,
    "provinceId": "hn",
    "category": "insurance",
    "name": "BHXH TP. Ha Noi",
    "address": "15 Le Dai Hanh, Hai Ba Trung",
    "phone": "024 3978 8988",
    "hours": "8:00 - 17:00 (Thu 2 - Thu 6)",
    "website": "",
    "isActive": true
  },
  {
    "id": 16,
    "provinceId": "hn",
    "category": "labor",
    "name": "So Lao dong - TB&XH Ha Noi",
    "address": "75 Nguyen Chi Thanh, Dong Da",
    "phone": "024 3835 1717",
    "hours": "8:00 - 17:00 (Thu 2 - Thu 6)",
    "website": "",
    "isActive": true
  },
  {
    "id": 17,
    "provinceId": "hn",
    "category": "business",
    "name": "So Ke hoach va Dau tu Ha Noi",
    "address": "16 Cat Linh, Dong Da",
    "phone": "024 3823 5606",
    "hours": "8:00 - 17:00 (Thu 2 - Thu 6)",
    "website": "",
    "isActive": true
  },
  {
    "id": 18,
    "provinceId": "dn",
    "category": "tax",
    "name": "Cuc Thue TP. Da Nang",
    "address": "77 Tran Phu, Hai Chau",
    "phone": "0236 3822 173",
    "hours": "7:30 - 16:30 (Thu 2 - Thu 6)",
    "website": "",
    "isActive": true
  },
  {
    "id": 19,
    "provinceId": "dn",
    "category": "court",
    "name": "Toa an Nhan dan TP. Da Nang",
    "address": "374 Dien Bien Phu, Thanh Khe",
    "phone": "0236 3847 145",
    "hours": "7:30 - 16:30 (Thu 2 - Thu 6)",
    "website": "",
    "isActive": true
  },
  {
    "id": 20,
    "provinceId": "dn",
    "category": "police",
    "name": "Cong an TP. Da Nang",
    "address": "47 Ly Tu Trong, Hai Chau",
    "phone": "0236 3821 222",
    "hours": "24/7",
    "website": "",
    "isActive": true
  },
  {
    "id": 21,
    "provinceId": "dn",
    "category": "insurance",
    "name": "BHXH TP. Da Nang",
    "address": "62 Tran Quoc Toan, Hai Chau",
    "phone": "0236 3818 282",
    "hours": "7:30 - 16:30 (Thu 2 - Thu 6)",
    "website": "",
    "isActive": true
  },
  {
    "id": 22,
    "provinceId": "hp",
    "category": "tax",
    "name": "Cuc Thue TP. Hai Phong",
    "address": "12 Ly Tu Trong, Hong Bang",
    "phone": "0225 3745 281",
    "hours": "7:30 - 16:30 (Thu 2 - Thu 6)",
    "website": "",
    "isActive": true
  },
  {
    "id": 23,
    "provinceId": "hp",
    "category": "court",
    "name": "Toa an Nhan dan TP. Hai Phong",
    "address": "1 Tran Phu, Ngo Quyen",
    "phone": "0225 3823 546",
    "hours": "7:30 - 16:30 (Thu 2 - Thu 6)",
    "website": "",
    "isActive": true
  },
  {
    "id": 24,
    "provinceId": "hp",
    "category": "police",
    "name": "Cong an TP. Hai Phong",
    "address": "2 Le Dai Hanh, Hong Bang",
    "phone": "0225 3747 244",
    "hours": "24/7",
    "website": "",
    "isActive": true
  },
  {
    "id": 25,
    "provinceId": "ct",
    "category": "tax",
    "name": "Cuc Thue TP. Can Tho",
    "address": "2 Hoa Binh, Ninh Kieu",
    "phone": "0292 3820 777",
    "hours": "7:30 - 16:30 (Thu 2 - Thu 6)",
    "website": "",
    "isActive": true
  },
  {
    "id": 26,
    "provinceId": "ct",
    "category": "court",
    "name": "Toa an Nhan dan TP. Can Tho",
    "address": "151 Tran Hung Dao, Ninh Kieu",
    "phone": "0292 3823 535",
    "hours": "7:30 - 16:30 (Thu 2 - Thu 6)",
    "website": "",
    "isActive": true
  },
  {
    "id": 27,
    "provinceId": "ct",
    "category": "police",
    "name": "Cong an TP. Can Tho",
    "address": "8 Hung Vuong, Ninh Kieu",
    "phone": "0292 3820 999",
    "hours": "24/7",
    "website": "",
    "isActive": true
  },
  {
    "id": 28,
    "provinceId": "bd",
    "category": "tax",
    "name": "Cuc Thue tinh Binh Duong",
    "address": "Dai lo Binh Duong, Thu Dau Mot",
    "phone": "0274 3822 168",
    "hours": "7:30 - 16:30 (Thu 2 - Thu 6)",
    "website": "",
    "isActive": true
  },
  {
    "id": 29,
    "provinceId": "bd",
    "category": "court",
    "name": "Toa an Nhan dan tinh Binh Duong",
    "address": "Duong 30/4, Thu Dau Mot",
    "phone": "0274 3824 456",
    "hours": "7:30 - 16:30 (Thu 2 - Thu 6)",
    "website": "",
    "isActive": true
  },
  {
    "id": 30,
    "provinceId": "bd",
    "category": "police",
    "name": "Cong an tinh Binh Duong",
    "address": "Dai lo Binh Duong, Thu Dau Mot",
    "phone": "0274 3822 113",
    "hours": "24/7",
    "website": "",
    "isActive": true
  },
  {
    "id": 31,
    "provinceId": "dn2",
    "category": "tax",
    "name": "Cuc Thue tinh Dong Nai",
    "address": "46 Cach Mang Thang 8, Bien Hoa",
    "phone": "0251 3822 262",
    "hours": "7:30 - 16:30 (Thu 2 - Thu 6)",
    "website": "",
    "isActive": true
  },
  {
    "id": 32,
    "provinceId": "dn2",
    "category": "court",
    "name": "Toa an Nhan dan tinh Dong Nai",
    "address": "1A Nguyen Ai Quoc, Bien Hoa",
    "phone": "0251 3822 118",
    "hours": "7:30 - 16:30 (Thu 2 - Thu 6)",
    "website": "",
    "isActive": true
  },
  {
    "id": 33,
    "provinceId": "dn2",
    "category": "police",
    "name": "Cong an tinh Dong Nai",
    "address": "161 Nguyen Ai Quoc, Bien Hoa",
    "phone": "0251 3822 113",
    "hours": "24/7",
    "website": "",
    "isActive": true
  },
  {
    "id": 34,
    "provinceId": "la",
    "category": "tax",
    "name": "Cuc Thue tinh Long An",
    "address": "118 Hung Vuong, TP. Tan An",
    "phone": "0272 3826 282",
    "hours": "7:30 - 16:30 (Thu 2 - Thu 6)",
    "website": "",
    "isActive": true
  },
  {
    "id": 35,
    "provinceId": "la",
    "category": "court",
    "name": "Toa an Nhan dan tinh Long An",
    "address": "66 Truong Dinh, TP. Tan An",
    "phone": "0272 3826 118",
    "hours": "7:30 - 16:30 (Thu 2 - Thu 6)",
    "website": "",
    "isActive": true
  },
  {
    "id": 36,
    "provinceId": "la",
    "category": "police",
    "name": "Cong an tinh Long An",
    "address": "111 Hung Vuong, TP. Tan An",
    "phone": "0272 3826 113",
    "hours": "24/7",
    "website": "",
    "isActive": true
  }
]